[{
	"pk": 0,
	"fields": {
		"lat": -40.172573771290516,
		"lng": 23.841608488760237,
		"published": true,
		"house_icon": "red",
		"name": "Joya Bob",
		"description": "This is a description about Joya Bob."
	}
}, {
	"pk": 1,
	"fields": {
		"lat": 5.508975602373425,
		"lng": 52.82908976438185,
		"published": false,
		"house_icon": "red",
		"name": "Joesph Britt",
		"description": "This is a description about Joesph Britt."
	}
}, {
	"pk": 2,
	"fields": {
		"lat": -46.66114373157572,
		"lng": 35.92538878672167,
		"published": true,
		"house_icon": "green",
		"name": "Howard Kent",
		"description": "This is a description about Howard Kent."
	}
}, {
	"pk": 3,
	"fields": {
		"lat": -23.01652944995081,
		"lng": 32.48626449892061,
		"published": false,
		"house_icon": "green",
		"name": "Joya Melany",
		"description": "This is a description about Joya Melany."
	}
}, {
	"pk": 4,
	"fields": {
		"lat": -57.59239606901544,
		"lng": 22.16549372490779,
		"published": true,
		"house_icon": "green",
		"name": "Joya Kent",
		"description": "This is a description about Joya Kent."
	}
}, {
	"pk": 5,
	"fields": {
		"lat": -59.61163452178384,
		"lng": 29.994100732779764,
		"published": true,
		"house_icon": "green",
		"name": "Melany Melany",
		"description": "This is a description about Melany Melany."
	}
}, {
	"pk": 6,
	"fields": {
		"lat": -55.910840301858194,
		"lng": 63.93398173794918,
		"published": true,
		"house_icon": "red",
		"name": "Aurelia Lucio",
		"description": "This is a description about Aurelia Lucio."
	}
}, {
	"pk": 7,
	"fields": {
		"lat": -33.55049165734468,
		"lng": 34.393683441696915,
		"published": false,
		"house_icon": "green",
		"name": "Britt John",
		"description": "This is a description about Britt John."
	}
}, {
	"pk": 8,
	"fields": {
		"lat": 1.955881998685932,
		"lng": 28.629670014966536,
		"published": false,
		"house_icon": "blue",
		"name": "Bob Kent",
		"description": "This is a description about Bob Kent."
	}
}, {
	"pk": 9,
	"fields": {
		"lat": -18.210029070753436,
		"lng": 43.6556790953537,
		"published": false,
		"house_icon": "red",
		"name": "Marinda Britt",
		"description": "This is a description about Marinda Britt."
	}
}, {
	"pk": 10,
	"fields": {
		"lat": -27.50943681823965,
		"lng": 45.051359164559315,
		"published": false,
		"house_icon": "blue",
		"name": "Joesph Melany",
		"description": "This is a description about Joesph Melany."
	}
}, {
	"pk": 11,
	"fields": {
		"lat": -5.212993634803404,
		"lng": 32.93720737178214,
		"published": true,
		"house_icon": "red",
		"name": "Stephane Bob",
		"description": "This is a description about Stephane Bob."
	}
}, {
	"pk": 12,
	"fields": {
		"lat": -7.451569608431029,
		"lng": 10.923588255099215,
		"published": true,
		"house_icon": "blue",
		"name": "Lucio Stephane",
		"description": "This is a description about Lucio Stephane."
	}
}, {
	"pk": 13,
	"fields": {
		"lat": -50.100330736016836,
		"lng": -6.549667758491296,
		"published": false,
		"house_icon": "blue",
		"name": "Marinda Jerilyn",
		"description": "This is a description about Marinda Jerilyn."
	}
}, {
	"pk": 14,
	"fields": {
		"lat": -49.46900091495506,
		"lng": -14.713120691040523,
		"published": true,
		"house_icon": "blue",
		"name": "Melany Mellissa",
		"description": "This is a description about Melany Mellissa."
	}
}, {
	"pk": 15,
	"fields": {
		"lat": -10.033822975962813,
		"lng": -10.527966180690685,
		"published": false,
		"house_icon": "green",
		"name": "Joya Stephane",
		"description": "This is a description about Joya Stephane."
	}
}, {
	"pk": 16,
	"fields": {
		"lat": -28.463580883710538,
		"lng": 32.322464531293164,
		"published": true,
		"house_icon": "green",
		"name": "Mellissa Marinda",
		"description": "This is a description about Mellissa Marinda."
	}
}, {
	"pk": 17,
	"fields": {
		"lat": -7.452836524248845,
		"lng": 40.48984766566594,
		"published": false,
		"house_icon": "red",
		"name": "Howard Howard",
		"description": "This is a description about Howard Howard."
	}
}, {
	"pk": 18,
	"fields": {
		"lat": -35.39807490249598,
		"lng": 60.218858315343226,
		"published": false,
		"house_icon": "red",
		"name": "Aurelia Howard",
		"description": "This is a description about Aurelia Howard."
	}
}, {
	"pk": 19,
	"fields": {
		"lat": -10.09340045741083,
		"lng": 58.514478369981006,
		"published": true,
		"house_icon": "red",
		"name": "Mellissa Gregory",
		"description": "This is a description about Mellissa Gregory."
	}
}, {
	"pk": 20,
	"fields": {
		"lat": -57.23495960124412,
		"lng": -11.431294850251797,
		"published": false,
		"house_icon": "blue",
		"name": "John Bob",
		"description": "This is a description about John Bob."
	}
}, {
	"pk": 21,
	"fields": {
		"lat": 4.621177192203035,
		"lng": 7.278453196633993,
		"published": false,
		"house_icon": "green",
		"name": "Britt Jerilyn",
		"description": "This is a description about Britt Jerilyn."
	}
}, {
	"pk": 22,
	"fields": {
		"lat": -30.66551410968729,
		"lng": 68.9813624179873,
		"published": true,
		"house_icon": "blue",
		"name": "Marinda Darius",
		"description": "This is a description about Marinda Darius."
	}
}, {
	"pk": 23,
	"fields": {
		"lat": -7.985443138717486,
		"lng": -2.516334602693334,
		"published": true,
		"house_icon": "blue",
		"name": "Gregory Stephane",
		"description": "This is a description about Gregory Stephane."
	}
}, {
	"pk": 24,
	"fields": {
		"lat": -15.95808846632962,
		"lng": 17.236006162863333,
		"published": true,
		"house_icon": "red",
		"name": "Flora Marinda",
		"description": "This is a description about Flora Marinda."
	}
}, {
	"pk": 25,
	"fields": {
		"lat": 3.6951882359984296,
		"lng": 69.63916534980137,
		"published": true,
		"house_icon": "red",
		"name": "Aurelia Joesph",
		"description": "This is a description about Aurelia Joesph."
	}
}, {
	"pk": 26,
	"fields": {
		"lat": 1.9481327495149046,
		"lng": 34.04056890818765,
		"published": true,
		"house_icon": "red",
		"name": "John Marinda",
		"description": "This is a description about John Marinda."
	}
}, {
	"pk": 27,
	"fields": {
		"lat": -44.74239393438855,
		"lng": -8.754268891915718,
		"published": true,
		"house_icon": "red",
		"name": "Yelena John",
		"description": "This is a description about Yelena John."
	}
}, {
	"pk": 28,
	"fields": {
		"lat": -40.51041427650672,
		"lng": 6.235722801412912,
		"published": true,
		"house_icon": "green",
		"name": "John Aurelia",
		"description": "This is a description about John Aurelia."
	}
}, {
	"pk": 29,
	"fields": {
		"lat": -10.249648781447434,
		"lng": 47.02701951592472,
		"published": true,
		"house_icon": "blue",
		"name": "Britt Marinda",
		"description": "This is a description about Britt Marinda."
	}
}, {
	"pk": 30,
	"fields": {
		"lat": -14.890161872066436,
		"lng": 15.862683886089986,
		"published": true,
		"house_icon": "blue",
		"name": "Mellissa Aurelia",
		"description": "This is a description about Mellissa Aurelia."
	}
}, {
	"pk": 31,
	"fields": {
		"lat": -29.514343821001155,
		"lng": 18.437780278696806,
		"published": true,
		"house_icon": "red",
		"name": "Jerilyn Lucio",
		"description": "This is a description about Jerilyn Lucio."
	}
}, {
	"pk": 32,
	"fields": {
		"lat": 5.5428166638987335,
		"lng": 28.203510178182327,
		"published": true,
		"house_icon": "red",
		"name": "Gregory Mellissa",
		"description": "This is a description about Gregory Mellissa."
	}
}, {
	"pk": 33,
	"fields": {
		"lat": -54.62696071248954,
		"lng": 11.562757400103045,
		"published": false,
		"house_icon": "blue",
		"name": "Gregory Melany",
		"description": "This is a description about Gregory Melany."
	}
}, {
	"pk": 34,
	"fields": {
		"lat": -36.50716260613726,
		"lng": 19.914828668238037,
		"published": true,
		"house_icon": "blue",
		"name": "Aurelia Aurelia",
		"description": "This is a description about Aurelia Aurelia."
	}
}, {
	"pk": 35,
	"fields": {
		"lat": -12.049302179555376,
		"lng": 3.743159841100862,
		"published": true,
		"house_icon": "red",
		"name": "Britt Britt",
		"description": "This is a description about Britt Britt."
	}
}, {
	"pk": 36,
	"fields": {
		"lat": -56.98968139833888,
		"lng": 7.383803846290874,
		"published": true,
		"house_icon": "blue",
		"name": "Lucio Joesph",
		"description": "This is a description about Lucio Joesph."
	}
}, {
	"pk": 37,
	"fields": {
		"lat": -54.96433232569786,
		"lng": 49.98825040141766,
		"published": false,
		"house_icon": "red",
		"name": "Britt Stephane",
		"description": "This is a description about Britt Stephane."
	}
}, {
	"pk": 38,
	"fields": {
		"lat": 0.989797564964725,
		"lng": -10.113785200649165,
		"published": true,
		"house_icon": "green",
		"name": "Joya Mellissa",
		"description": "This is a description about Joya Mellissa."
	}
}, {
	"pk": 39,
	"fields": {
		"lat": -38.50884494756993,
		"lng": 60.21399018638856,
		"published": true,
		"house_icon": "red",
		"name": "John Gregory",
		"description": "This is a description about John Gregory."
	}
}, {
	"pk": 40,
	"fields": {
		"lat": -27.666089736742947,
		"lng": 33.80459790591861,
		"published": true,
		"house_icon": "red",
		"name": "Stephane Melany",
		"description": "This is a description about Stephane Melany."
	}
}, {
	"pk": 41,
	"fields": {
		"lat": -47.212535725648266,
		"lng": 13.656877633849088,
		"published": false,
		"house_icon": "green",
		"name": "Marinda Kent",
		"description": "This is a description about Marinda Kent."
	}
}, {
	"pk": 42,
	"fields": {
		"lat": -41.934349142600624,
		"lng": -8.132579060385709,
		"published": true,
		"house_icon": "red",
		"name": "Melany Stephane",
		"description": "This is a description about Melany Stephane."
	}
}, {
	"pk": 43,
	"fields": {
		"lat": -18.160241422733336,
		"lng": 22.825668718372782,
		"published": false,
		"house_icon": "green",
		"name": "Shira Aurelia",
		"description": "This is a description about Shira Aurelia."
	}
}, {
	"pk": 44,
	"fields": {
		"lat": 4.683700772082432,
		"lng": 13.4652311535866,
		"published": true,
		"house_icon": "red",
		"name": "Jerilyn Aurelia",
		"description": "This is a description about Jerilyn Aurelia."
	}
}, {
	"pk": 45,
	"fields": {
		"lat": -37.46515263324171,
		"lng": 27.128458024559627,
		"published": false,
		"house_icon": "blue",
		"name": "Stephane Bob",
		"description": "This is a description about Stephane Bob."
	}
}, {
	"pk": 46,
	"fields": {
		"lat": -31.914855413384494,
		"lng": -8.96610125648272,
		"published": true,
		"house_icon": "blue",
		"name": "Stephane Mellissa",
		"description": "This is a description about Stephane Mellissa."
	}
}, {
	"pk": 47,
	"fields": {
		"lat": -41.734227437406894,
		"lng": 16.912840256482887,
		"published": true,
		"house_icon": "blue",
		"name": "Melany Joya",
		"description": "This is a description about Melany Joya."
	}
}, {
	"pk": 48,
	"fields": {
		"lat": -28.913000264210574,
		"lng": 22.954350258973896,
		"published": true,
		"house_icon": "green",
		"name": "Melany Yelena",
		"description": "This is a description about Melany Yelena."
	}
}, {
	"pk": 49,
	"fields": {
		"lat": -56.988868371368916,
		"lng": 57.80793305200663,
		"published": true,
		"house_icon": "blue",
		"name": "Marinda Stephane",
		"description": "This is a description about Marinda Stephane."
	}
}]
